{
  "title": "Colorado Fourteeners",
  "listID": "co14",
  "peakCount": 53,
  "peaks": [
    {
      "id": 180381,
      "name": "Mt. Elbert",
      "lat": 39.1178687,
      "long": -106.4452569,
      "elevation": 14426,
      "state": "CO"
    },
    {
      "id": 180119,
      "name": "Mt. Massive",
      "lat": 39.1873242,
      "long": -106.4756085,
      "elevation": 14419,
      "state": "CO"
    },
    {
      "id": 189179,
      "name": "Mt. Harvard",
      "lat": 38.9243492,
      "long": -106.3206758,
      "elevation": 14406,
      "state": "CO"
    },
    {
      "id": 192735,
      "name": "Blanca Peak",
      "lat": 37.5775609,
      "long": -105.4855987,
      "elevation": 14347,
      "state": "CO"
    },
    {
      "id": 180393,
      "name": "La Plata Peak",
      "lat": 39.0293628,
      "long": -106.4731089,
      "elevation": 14334,
      "state": "CO"
    },
    {
      "id": 188678,
      "name": "Uncompahgre Peak",
      "lat": 38.0714529,
      "long": -107.4625289,
      "elevation": 14308,
      "state": "CO"
    },
    {
      "id": 181827,
      "name": "Grays Peak",
      "lat": 39.6337372,
      "long": -105.8173702,
      "elevation": 14275,
      "state": "CO"
    },
    {
      "id": 179667,
      "name": "Quandary Peak",
      "lat": 39.3972537,
      "long": -106.1063989,
      "elevation": 14262,
      "state": "CO"
    },
    {
      "id": 181829,
      "name": "Torreys Peak",
      "lat": 39.6426923,
      "long": -105.8211948,
      "elevation": 14265,
      "state": "CO"
    },
    {
      "id": 189455,
      "name": "Mt. Antero",
      "lat": 38.6740472,
      "long": -106.2462488,
      "elevation": 14249,
      "state": "CO"
    },
    {
      "id": 204979,
      "name": "Longs Peak",
      "lat": 40.2548614,
      "long": -105.6162397,
      "elevation": 14262,
      "state": "CO"
    },
    {
      "id": 187461,
      "name": "Mt. Wilson",
      "lat": 37.8392056,
      "long": -107.9915763,
      "elevation": 14255,
      "state": "CO"
    },
    {
      "id": 189451,
      "name": "Mt. Shavano",
      "lat": 38.6189805,
      "long": -106.2392197,
      "elevation": 14222,
      "state": "CO"
    },
    {
      "id": 189170,
      "name": "Mt. Belford",
      "lat": 38.9605767,
      "long": -106.3607818,
      "elevation": 14170,
      "state": "CO"
    },
    {
      "id": 189458,
      "name": "Mt. Princeton",
      "lat": 38.7491503,
      "long": -106.2424463,
      "elevation": 14196,
      "state": "CO"
    },
    {
      "id": 189198,
      "name": "Mt. Yale",
      "lat": 38.8441725,
      "long": -106.3139015,
      "elevation": 14193,
      "state": "CO"
    },
    {
      "id": 203951,
      "name": "Crestone Needle",
      "lat": 37.9646991,
      "long": -105.5767188,
      "elevation": 14166,
      "state": "CO"
    },
    {
      "id": 179961,
      "name": "Mt. Bross",
      "lat": 39.3349948,
      "long": -106.1071665,
      "elevation": 14176,
      "state": "CO"
    },
    {
      "id": 204778,
      "name": "Kit Carson Mountain",
      "lat": 37.9796989,
      "long": -105.6026169,
      "elevation": 14186,
      "state": "CO"
    },
    {
      "id": 189171,
      "name": "Mt. Oxford",
      "lat": 38.9647934,
      "long": -106.3387735,
      "elevation": 14140,
      "state": "CO"
    },
    {
      "id": 203948,
      "name": "Tabeguache Peak",
      "lat": 38.6256209,
      "long": -106.2506089,
      "elevation": 14114,
      "state": "CO"
    },
    {
      "id": 196432,
      "name": "Mt. Sneffels",
      "lat": 38.0038447,
      "long": -107.7922734,
      "elevation": 14150,
      "state": "CO"
    },
    {
      "id": 204685,
      "name": "Mt. Democrat",
      "lat": 39.3394723,
      "long": -106.1398604,
      "elevation": 14144,
      "state": "CO"
    },
    {
      "id": 175209,
      "name": "Capitol Peak",
      "lat": 39.1501588,
      "long": -107.0827488,
      "elevation": 14117,
      "state": "CO"
    },
    {
      "id": 204770,
      "name": "Pikes Peak",
      "lat": 38.8405839,
      "long": -105.0449035,
      "elevation": 14114,
      "state": "CO"
    },
    {
      "id": 175555,
      "name": "Snowmass Mountain",
      "lat": 39.1186541,
      "long": -107.0664035,
      "elevation": 14107,
      "state": "CO"
    },
    {
      "id": 187990,
      "name": "Windom Peak",
      "lat": 37.621313,
      "long": -107.5917613,
      "elevation": 14084,
      "state": "CO"
    },
    {
      "id": 187988,
      "name": "Mt. Eolus",
      "lat": 37.6216871,
      "long": -107.6225967,
      "elevation": 14088,
      "state": "CO"
    },
    {
      "id": 203886,
      "name": "Mt. Columbia",
      "lat": 38.9038441,
      "long": -106.2974478,
      "elevation": 14055,
      "state": "CO"
    },
    {
      "id": 189167,
      "name": "Missouri Mountain",
      "lat": 38.9476104,
      "long": -106.3785409,
      "elevation": 14062,
      "state": "CO"
    },
    {
      "id": 192424,
      "name": "Humboldt Peak",
      "lat": 37.9761388,
      "long": -105.5550716,
      "elevation": 14062,
      "state": "CO"
    },
    {
      "id": 182467,
      "name": "Mt. Bierstadt",
      "lat": 39.5826432,
      "long": -105.6687551,
      "elevation": 14058,
      "state": "CO"
    },
    {
      "id": 187404,
      "name": "Handies Peak",
      "lat": 37.9129617,
      "long": -107.5044497,
      "elevation": 14048,
      "state": "CO"
    },
    {
      "id": 192733,
      "name": "Ellingwood Point",
      "lat": 37.5824644,
      "long": -105.4926087,
      "elevation": 14062,
      "state": "CO"
    },
    {
      "id": 192730,
      "name": "Mt. Lindsey",
      "lat": 37.583803,
      "long": -105.4446957,
      "elevation": 14062,
      "state": "CO"
    },
    {
      "id": 193131,
      "name": "Culebra Peak",
      "lat": 37.1222185,
      "long": -105.1857672,
      "elevation": 14039,
      "state": "CO"
    },
    {
      "id": 180207,
      "name": "Mt. Sherman",
      "lat": 39.2251336,
      "long": -106.1699259,
      "elevation": 14019,
      "state": "CO"
    },
    {
      "id": 204780,
      "name": "Little Bear Peak",
      "lat": 37.5665804,
      "long": -105.4972025,
      "elevation": 14035,
      "state": "CO"
    },
    {
      "id": 187423,
      "name": "Redcloud Peak",
      "lat": 37.9409934,
      "long": -107.4217338,
      "elevation": 14039,
      "state": "CO"
    },
    {
      "id": 180300,
      "name": "Conundrum Peak",
      "lat": 39.0144457,
      "long": -106.86364,
      "elevation": 14032,
      "state": "CO"
    },
    {
      "id": 190463,
      "name": "San Luis Peak",
      "lat": 37.9867825,
      "long": -106.9312952,
      "elevation": 14016,
      "state": "CO"
    },
    {
      "id": 180264,
      "name": "North Maroon Peak",
      "lat": 39.076094,
      "long": -106.9870852,
      "elevation": 14016,
      "state": "CO"
    },
    {
      "id": 188661,
      "name": "Wetterhorn Peak",
      "lat": 38.0606119,
      "long": -107.5108819,
      "elevation": 14021,
      "state": "CO"
    },
    {
      "id": 187455,
      "name": "Wilson Peak",
      "lat": 37.8602995,
      "long": -107.9846517,
      "elevation": 14025,
      "state": "CO"
    },
    {
      "id": 179522,
      "name": "Mt. of the Holy Cross",
      "lat": 39.4666238,
      "long": -106.481692,
      "elevation": 14007,
      "state": "CO"
    },
    {
      "id": 189155,
      "name": "Huron Peak",
      "lat": 38.9455489,
      "long": -106.4381146,
      "elevation": 14012,
      "state": "CO"
    },
    {
      "id": 204748,
      "name": "Sunshine Peak",
      "lat": 37.9227181,
      "long": -107.4255595,
      "elevation": 14012,
      "state": "CO"
    },
    {
      "id": 179956,
      "name": "Mt. Lincoln",
      "lat": 39.351504,
      "long": -106.1113773,
      "elevation": 14285,
      "state": "CO"
    },
    {
      "id": 180301,
      "name": "Castle Peak",
      "lat": 39.0096902,
      "long": -106.8612901,
      "elevation": 14258,
      "state": "CO"
    },
    {
      "id": 204716,
      "name": "Mt. Evans",
      "lat": 39.5881224,
      "long": -105.6437272,
      "elevation": 14235,
      "state": "CO"
    },
    {
      "id": 180276,
      "name": "Maroon Peak",
      "lat": 39.0706997,
      "long": -106.9888794,
      "elevation": 14144,
      "state": "CO"
    },
    {
      "id": 187843,
      "name": "Sunlight Peak",
      "lat": 37.6272835,
      "long": -107.595797,
      "elevation": 14055,
      "state": "CO"
    },
    {
      "id": 180265,
      "name": "Pyramid Peak",
      "lat": 39.0717385,
      "long": -106.9499676,
      "elevation": 14029,
      "state": "CO"
    }
  ],
  "description": "The Colorado Fourteeners (14ers) are a collection of all summits over 14,000 ft. in elevation with at least 300 ft of topographic prominence across seven mountain ranges within the state of Colorado. Colorado is home to more fourteeners than any other state in the US. The tallest peak, Mt. Elbert, is the second tallest mountain in the lower 48 states."
}
