{"title":"USA State Highpoints","listID":"usHigh","peakCount":51,"peaks":[{"id":1414314,"name":"Denali","lat":63.0691018,"long":-151.0062617,"elevation":20233,"state":"AK"},{"id":159374,"name":"Cheaha Mountain","lat":33.485384,"long":-85.8085996,"elevation":2405,"state":"AL"},{"id":30290,"name":"Humphreys Peak","lat":35.3463151,"long":-111.6779884,"elevation":12621,"state":"AZ"},{"id":67051,"name":"Magazine Mountain","lat":35.167277,"long":-93.6449649,"elevation":2746,"state":"AR"},{"id":251507,"name":"Mt. Whitney","lat":33.1089292,"long":-117.1553115,"elevation":1736,"state":"CA"},{"id":180381,"name":"Mt. Elbert","lat":39.1178687,"long":-106.4452569,"elevation":14426,"state":"CO"},{"id":205348,"name":"Bear Mountain","lat":42.0448138,"long":-73.4548423,"elevation":2323,"state":"CT"},{"id":2496982,"name":"Point Reno","lat":38.9517864,"long":-77.076023,"elevation":407,"state":"DC"},{"id":1851954,"name":"Britton Hill","lat":30.9886961,"long":-86.282046,"elevation":344,"state":"FL"},{"id":354839,"name":"Brasstown Bald","lat":34.8741923,"long":-83.8106479,"elevation":4774,"state":"GA"},{"id":366215,"name":"Mauna Kea","lat":19.8206065,"long":-155.4681155,"elevation":13776,"state":"HI"},{"id":1851955,"name":"Hawkeye Point","lat":43.4599668,"long":-95.7089033,"elevation":1670,"state":"IA"},{"id":378037,"name":"Borah Peak","lat":44.1373404,"long":-113.7811392,"elevation":12647,"state":"ID"},{"id":423586,"name":"Charles Mound","lat":42.5040283,"long":-90.2395964,"elevation":1234,"state":"IL"},{"id":1851956,"name":"Hoosier Hill","lat":40.0002603,"long":-84.8509693,"elevation":1250,"state":"IN"},{"id":484933,"name":"Mt. Sunflower","lat":39.0219757,"long":-102.0372428,"elevation":4035,"state":"KS"},{"id":496627,"name":"Little Black Mountain","lat":36.8409229,"long":-83.0748906,"elevation":3487,"state":"KY"},{"id":542199,"name":"Driskill Mountain","lat":32.4250483,"long":-92.8969723,"elevation":531,"state":"LA"},{"id":588826,"name":"Backbone Mountain","lat":39.237329,"long":-79.4853308,"elevation":3360,"state":"MD"},{"id":1623751,"name":"Mt. Arvon","lat":46.755813,"long":-88.155434,"elevation":1978,"state":"MI"},{"id":656081,"name":"Eagle Mountain","lat":47.8973467,"long":-90.5606387,"elevation":2290,"state":"MN"},{"id":752501,"name":"Taum Sauk Mountain","lat":37.5712766,"long":-90.7291683,"elevation":1772,"state":"MO"},{"id":692362,"name":"Woodall Mountain","lat":34.7876908,"long":-88.2416081,"elevation":807,"state":"MS"},{"id":784177,"name":"Granite Peak","lat":45.1634239,"long":-109.807608,"elevation":12759,"state":"MT"},{"id":1013745,"name":"Mt. Mitchell","lat":35.7647624,"long":-82.2648609,"elevation":6663,"state":"NC"},{"id":1035239,"name":"White Butte","lat":46.3869054,"long":-103.3027053,"elevation":3504,"state":"ND"},{"id":1851953,"name":"Panorama Point","lat":41.0077144,"long":-104.0314615,"elevation":5430,"state":"NE"},{"id":877098,"name":"High Point","lat":41.3208722,"long":-74.6615393,"elevation":1798,"state":"NJ"},{"id":928839,"name":"Wheeler Peak","lat":36.5569142,"long":-105.416856,"elevation":13176,"state":"NM"},{"id":857652,"name":"Boundary Peak","lat":37.846072,"long":-118.3510759,"elevation":13123,"state":"NV"},{"id":973357,"name":"Mt. Marcy","lat":44.112733,"long":-73.9237833,"elevation":5344,"state":"NY"},{"id":1079572,"name":"Campbell Hill","lat":40.3702615,"long":-83.720086,"elevation":1545,"state":"OH"},{"id":1090209,"name":"Black Mesa","lat":36.845855,"long":-102.8802025,"elevation":4975,"state":"OK"},{"id":1143711,"name":"Mt. Hood","lat":45.3733674,"long":-121.6957784,"elevation":11230,"state":"OR"},{"id":1209050,"name":"Mt. Davis","lat":39.7858675,"long":-79.1766429,"elevation":3209,"state":"PA"},{"id":1015279,"name":"Sassafras Mountain","lat":35.065108,"long":-82.7776292,"elevation":3537,"state":"SC"},{"id":1261770,"name":"Black Elk Peak","lat":43.865991,"long":-103.5312013,"elevation":7247,"state":"SD"},{"id":1358489,"name":"Guadalupe Peak","lat":31.8914269,"long":-104.8606624,"elevation":8753,"state":"TX"},{"id":1442332,"name":"Kings Peak","lat":40.7763756,"long":-110.3728037,"elevation":13520,"state":"UT"},{"id":1485637,"name":"Mt. Rogers","lat":36.6599777,"long":-81.544987,"elevation":5728,"state":"VA"},{"id":1326387,"name":"Clingmans Dome","lat":35.562778,"long":-83.498535,"elevation":6644,"state":"TN"},{"id":1533614,"name":"Mt. Rainier","lat":46.8528267,"long":-121.7604408,"elevation":14406,"state":"WA"},{"id":1575464,"name":"Timms Hill","lat":45.4507963,"long":-90.1953351,"elevation":1949,"state":"WI"},{"id":1553014,"name":"Spruce Knob","lat":38.6998284,"long":-79.5328253,"elevation":4862,"state":"WV"},{"id":1599903,"name":"Gannett Peak","lat":43.1843012,"long":-109.6541217,"elevation":13815,"state":"WY"},{"id":871352,"name":"Mt. Washington","lat":44.2705781,"long":-71.3033287,"elevation":6273,"state":"NH"},{"id":561737,"name":"Mt. Katahdin (Baxter Peak)","lat":45.9042845,"long":-68.9213562,"elevation":5259,"state":"ME"},{"id":1461774,"name":"Mt. Mansfield","lat":44.5436627,"long":-72.8142903,"elevation":4383,"state":"VT"},{"id":1219566,"name":"Jerimoth Hill","lat":41.8494158,"long":-71.7788736,"elevation":810,"state":"RI"},{"id":607448,"name":"Mt. Greylock","lat":42.6371703,"long":-73.1659399,"elevation":3491,"state":"MA"},{"id":20,"name":"Ebright Azimuth","lat":39.835955,"long":-75.522182,"elevation":448,"state":"DE"}]}