{
  "title": "Adirondack High Peaks",
  "listID": "adk46",
  "peaks": [
    {
      "id": 973357,
      "name": "Mt. Marcy",
      "lat": 44.112733,
      "long": -73.9237833,
      "elevation": 5344,
      "state": "NY"
    },
    {
      "id": 973340,
      "name": "Algonquin Peak",
      "lat": 44.1436636,
      "long": -73.9865357,
      "elevation": 5105,
      "state": "NY"
    },
    {
      "id": 973353,
      "name": "Mt. Haystack",
      "lat": 44.1056093,
      "long": -73.9004196,
      "elevation": 4924,
      "state": "NY"
    },
    {
      "id": 973360,
      "name": "Mt. Skylight",
      "lat": 44.0994987,
      "long": -73.9306986,
      "elevation": 4908,
      "state": "NY"
    },
    {
      "id": 973364,
      "name": "Whiteface Mountain",
      "lat": 44.3658804,
      "long": -73.9026456,
      "elevation": 4816,
      "state": "NY"
    },
    {
      "id": 973347,
      "name": "Dix Mountain",
      "lat": 44.0822756,
      "long": -73.7862471,
      "elevation": 4813,
      "state": "NY"
    },
    {
      "id": 973351,
      "name": "Gray Peak",
      "lat": 44.1114427,
      "long": -73.9348658,
      "elevation": 4800,
      "state": "NY"
    },
    {
      "id": 973355,
      "name": "Iroquois Peak",
      "lat": 44.1369973,
      "long": -73.9982027,
      "elevation": 4829,
      "state": "NY"
    },
    {
      "id": 973341,
      "name": "Basin Mountain",
      "lat": 44.1211639,
      "long": -73.8862527,
      "elevation": 4852,
      "state": "NY"
    },
    {
      "id": 973349,
      "name": "Gothics",
      "lat": 44.1281079,
      "long": -73.8570849,
      "elevation": 4724,
      "state": "NY"
    },
    {
      "id": 947091,
      "name": "Mt. Colden",
      "lat": 44.1269976,
      "long": -73.9598674,
      "elevation": 4708,
      "state": "NY"
    },
    {
      "id": 2611110,
      "name": "Giant Mountain",
      "lat": 44.161165,
      "long": -73.720279,
      "elevation": 4623,
      "state": "NY"
    },
    {
      "id": 958617,
      "name": "Nippletop",
      "lat": 44.0892202,
      "long": -73.8159708,
      "elevation": 4554,
      "state": "NY"
    },
    {
      "id": 964468,
      "name": "Santanoni Peak",
      "lat": 44.0822811,
      "long": -74.1309855,
      "elevation": 4596,
      "state": "NY"
    },
    {
      "id": 962328,
      "name": "Mt. Redfield",
      "lat": 44.094777,
      "long": -73.949866,
      "elevation": 4603,
      "state": "NY"
    },
    {
      "id": 971754,
      "name": "Wright Peak",
      "lat": 44.1517187,
      "long": -73.9801468,
      "elevation": 4564,
      "state": "NY"
    },
    {
      "id": 959830,
      "name": "Panther Peak",
      "lat": 44.0983915,
      "long": -74.132097,
      "elevation": 4455,
      "state": "NY"
    },
    {
      "id": 966981,
      "name": "Table Top Mountain",
      "lat": 44.143663,
      "long": -73.9070876,
      "elevation": 4295,
      "state": "NY"
    },
    {
      "id": 2651608,
      "name": "Rocky Peak",
      "lat": 44.1542177,
      "long": -73.7051718,
      "elevation": 4403,
      "state": "NY"
    },
    {
      "id": 971960,
      "name": "Macomb Mountain",
      "lat": 44.0517211,
      "long": -73.7801349,
      "elevation": 4396,
      "state": "NY"
    },
    {
      "id": 953279,
      "name": "Hough Peak",
      "lat": 44.0694981,
      "long": -73.7776352,
      "elevation": 4393,
      "state": "NY"
    },
    {
      "id": 964885,
      "name": "Seward Mountain",
      "lat": 44.1597799,
      "long": -74.1993239,
      "elevation": 4327,
      "state": "NY"
    },
    {
      "id": 956573,
      "name": "Mt. Marshall",
      "lat": 44.1275538,
      "long": -74.0118142,
      "elevation": 4380,
      "state": "NY"
    },
    {
      "id": 942362,
      "name": "Allen Mountain",
      "lat": 44.0708892,
      "long": -73.9395871,
      "elevation": 4321,
      "state": "NY"
    },
    {
      "id": 943955,
      "name": "Big Slide Mountain",
      "lat": 44.1822721,
      "long": -73.8704202,
      "elevation": 4232,
      "state": "NY"
    },
    {
      "id": 949720,
      "name": "Esther Mountain",
      "lat": 44.3869916,
      "long": -73.8898673,
      "elevation": 4232,
      "state": "NY"
    },
    {
      "id": 968312,
      "name": "Upper Wolfjaw Mountain",
      "lat": 44.1406072,
      "long": -73.8451402,
      "elevation": 4190,
      "state": "NY"
    },
    {
      "id": 956118,
      "name": "Lower Wolfjaw Mountain",
      "lat": 44.1483845,
      "long": -73.8326399,
      "elevation": 4190,
      "state": "NY"
    },
    {
      "id": 966631,
      "name": "Street Mountain",
      "lat": 44.1797741,
      "long": -74.0437616,
      "elevation": 4022,
      "state": "NY"
    },
    {
      "id": 960289,
      "name": "Phelps Mountain",
      "lat": 44.1569957,
      "long": -73.9209775,
      "elevation": 4137,
      "state": "NY"
    },
    {
      "id": 948566,
      "name": "Donaldson Mountain",
      "lat": 44.1539471,
      "long": -74.210991,
      "elevation": 4062,
      "state": "NY"
    },
    {
      "id": 964894,
      "name": "Seymour Mountain",
      "lat": 44.1578347,
      "long": -74.1721003,
      "elevation": 4055,
      "state": "NY"
    },
    {
      "id": 964537,
      "name": "Sawteeth",
      "lat": 44.1139417,
      "long": -73.8504175,
      "elevation": 4114,
      "state": "NY"
    },
    {
      "id": 965737,
      "name": "South Dix",
      "lat": 44.060054,
      "long": -73.7743014,
      "elevation": 4088,
      "state": "NY"
    },
    {
      "id": 960994,
      "name": "Porter Mountain",
      "lat": 44.2153262,
      "long": -73.8434754,
      "elevation": 4058,
      "state": "NY"
    },
    {
      "id": 947211,
      "name": "Mt. Colvin",
      "lat": 44.0939424,
      "long": -73.8345829,
      "elevation": 4049,
      "state": "NY"
    },
    {
      "id": 949645,
      "name": "Mt. Emmons",
      "lat": 44.1436698,
      "long": -74.2140464,
      "elevation": 4022,
      "state": "NY"
    },
    {
      "id": 949060,
      "name": "Grace Peak",
      "lat": 44.0653314,
      "long": -73.7573564,
      "elevation": 4006,
      "state": "NY"
    },
    {
      "id": 944215,
      "name": "Blake Peak",
      "lat": 44.081443,
      "long": -73.844583,
      "elevation": 3976,
      "state": "NY"
    },
    {
      "id": 946865,
      "name": "Cliff Mountain",
      "lat": 44.1031102,
      "long": -73.9751452,
      "elevation": 3940,
      "state": "NY"
    },
    {
      "id": 959076,
      "name": "Nye Mountain",
      "lat": 44.1931062,
      "long": -74.0240387,
      "elevation": 3871,
      "state": "NY"
    },
    {
      "id": 947539,
      "name": "Couchsachraga Peak",
      "lat": 44.0956146,
      "long": -74.1601539,
      "elevation": 3793,
      "state": "NY"
    },
    {
      "id": 948403,
      "name": "Dial Mountain",
      "lat": 44.1058859,
      "long": -73.7959703,
      "elevation": 4020,
      "state": "NY"
    },
    {
      "id": 970556,
      "name": "Saddleback Mountain",
      "lat": 44.1264414,
      "long": -73.8748634,
      "elevation": 4534,
      "state": "NY"
    },
    {
      "id": 942572,
      "name": "Armstrong Mountain",
      "lat": 44.1347741,
      "long": -73.8490291,
      "elevation": 4360,
      "state": "NY"
    },
    {
      "id": 945952,
      "name": "Cascade Mountain",
      "lat": 44.2186594,
      "long": -73.860143,
      "elevation": 4094,
      "state": "NY"
    }
  ],
  "description": "The Adirondack High Peaks (also known as the \"46ers\") are a collection of summits within Adirondack Park, the largest state park and largest publicly protected area in the lower 48 states. The original list was thought to contain all peaks over 4,000 ft. in the park, but recent USGS surveys have shown four of the peaks slightly below this threshold."
}
